City_ID,City,Lat,Lng,Max Temp,Humidity,Cloudiness,Wind Speed,Country,Date
0,alugan,12.2188,125.4808,78.51,85,21,14.92,PH,1676057436
1,goderich,43.7501,-81.7165,34.12,64,100,12.66,CA,1676057436
2,barrow,71.2906,-156.7887,-7.58,77,100,11.5,US,1676057437
3,zonguldak,41.25,31.8333,28.99,91,100,1.52,TR,1676057438
4,businga,3.3333,20.8833,77.32,29,7,0.81,CD,1676057438
5,busselton,-33.65,115.3333,57.06,77,0,9.13,AU,1676057439
6,mataura,-46.1927,168.8643,53.47,70,18,2.1,NZ,1676057439
7,mildura,-34.2,142.15,60.08,81,0,7.9,AU,1676057440
8,tasiilaq,65.6145,-37.6368,23.16,94,100,7.29,GL,1676057441
9,souillac,-20.5167,57.5167,80.98,69,40,9.22,MU,1676057441
10,rikitea,-23.1203,-134.9692,79.61,73,4,19.33,PF,1676057442
11,puerto ayora,-0.7393,-90.3518,84.16,85,89,8.01,EC,1676057442
12,faanui,-16.4833,-151.75,81.32,73,28,12.55,PF,1676057443
13,cherskiy,68.75,161.3,-38.13,98,100,5.26,RU,1676057444
14,yellowknife,62.456,-114.3525,-6.45,84,100,4.61,CA,1676057445
15,orsha,54.5153,30.4053,26.89,88,9,14.32,BY,1676057251
16,chuy,-33.6971,-53.4616,84.56,51,0,13.8,UY,1676057446
17,kavieng,-2.5744,150.7967,79.0,83,100,7.83,PG,1676057446
18,flinders,-34.5833,150.8552,64.26,92,38,4.0,AU,1676057447
19,cape town,-33.9258,18.4232,80.38,55,0,13.8,ZA,1676057379
20,punta arenas,-53.15,-70.9167,62.71,39,40,21.85,CL,1676057436
21,kahului,20.8947,-156.47,75.85,77,40,13.8,US,1676057448
22,urucuca,-14.5931,-39.2844,85.01,51,13,7.7,BR,1676057357
23,krasnoselkup,65.7,82.4667,12.96,93,100,22.17,RU,1676057448
24,new norfolk,-42.7826,147.0587,62.1,71,42,0.49,AU,1676057449
25,lakes entrance,-37.8811,147.981,61.16,80,0,5.53,AU,1676057450
26,ushuaia,-54.8,-68.3,58.66,51,75,12.66,AR,1676057450
27,geraldton,-28.7667,114.6,66.61,77,40,13.8,AU,1676057183
28,hermanus,-34.4187,19.2345,71.8,68,0,10.0,ZA,1676057451
29,vila velha,-20.3297,-40.2925,85.95,71,20,18.41,BR,1676057452
30,arraial do cabo,-22.9661,-42.0278,85.96,61,0,17.27,BR,1676057273
31,port elizabeth,-33.918,25.5701,70.11,83,0,4.61,ZA,1676057351
32,hilo,19.7297,-155.09,71.94,88,75,4.0,US,1676057321
33,hobart,-42.8794,147.3294,62.46,92,75,5.75,AU,1676057453
34,fortuna,40.5982,-124.1573,47.66,91,75,0.0,US,1676057453
35,miri,4.4148,114.0089,75.34,100,40,1.14,MY,1676057454
36,ahipara,-35.1667,173.1667,64.98,83,100,9.82,NZ,1676057455
37,kirovskiy,45.0917,133.5136,15.42,98,100,1.97,RU,1676057455
38,aginskoye,51.1,114.53,-5.48,100,84,4.41,RU,1676057456
39,faya,18.3851,42.4509,57.31,67,11,3.44,SA,1676057456
40,east london,-33.0153,27.9116,71.74,82,100,8.1,ZA,1676057457
41,albany,42.6001,-73.9662,48.06,65,97,3.0,US,1676057233
42,roma,43.2128,-75.4557,39.96,79,100,16.11,US,1676057403
43,nouakchott,18.0858,-15.9785,75.13,71,81,9.93,MR,1676057273
44,matiguas,12.8373,-85.4622,87.84,38,39,14.45,NI,1676057458
45,bridgewater,44.3835,-64.5155,48.11,96,100,17.27,CA,1676057458
46,san andres,12.5847,-81.7006,86.02,62,20,17.27,CO,1676057230
47,pevek,69.7008,170.3133,-26.16,95,100,6.31,RU,1676057459
48,tuktoyaktuk,69.4541,-133.0374,-20.2,76,75,12.66,CA,1676057459
49,longkou,37.6508,120.3286,34.9,85,100,7.29,CN,1676057460
50,oranjemund,-28.55,16.4333,65.62,94,11,2.77,NA,1676057461
51,chapais,49.7834,-74.8492,13.78,89,100,8.97,CA,1676057461
52,bluff,-46.6,168.3333,53.8,80,54,6.46,NZ,1676057462
53,mgandu,-5.95,34.1333,62.06,97,100,3.33,TZ,1676057463
54,butaritari,3.0707,172.7902,80.98,80,100,21.03,KI,1676057463
55,narsaq,60.9167,-46.05,21.42,93,87,3.67,GL,1676057464
56,upernavik,72.7868,-56.1549,-16.73,93,100,9.35,GL,1676057465
57,veraval,20.9,70.3667,70.39,80,0,9.62,IN,1676057466
58,banswara,23.55,74.45,68.23,31,0,2.42,IN,1676057467
59,tatawin,32.9297,10.4518,47.79,85,100,23.94,TN,1676057467
60,nikolskoye,59.7035,30.7861,31.89,77,100,16.8,RU,1676057468
61,kitimat,54.0524,-128.6534,34.18,32,89,2.51,CA,1676057423
62,aklavik,68.2191,-135.0107,-13.0,77,100,6.91,CA,1676057469
63,bredasdorp,-34.5322,20.0403,69.94,77,0,13.27,ZA,1676057470
64,sistranda,63.7256,8.834,31.96,96,100,9.8,NO,1676057471
65,khatanga,71.9667,102.5,-33.47,93,13,9.26,RU,1676057471
66,siniscola,40.5719,9.6922,36.95,70,0,6.89,IT,1676057472
67,kushima,31.4583,131.2333,48.96,82,96,3.38,JP,1676057473
68,vaini,-21.2,-175.2,75.36,94,100,5.75,TO,1676057474
69,kapaa,22.0752,-159.319,75.52,83,100,16.11,US,1676057474
70,maragogi,-9.0122,-35.2225,81.43,69,99,9.35,BR,1676057475
71,hasaki,35.7333,140.8333,37.8,69,100,25.26,JP,1676057476
72,shetpe,44.1667,52.1167,22.91,74,21,1.5,KZ,1676057477
73,ouro fino,-22.2831,-46.3692,73.87,86,95,2.77,BR,1676057477
74,garhi khairo,28.0606,67.9803,63.36,20,7,8.7,PK,1676057478
75,wanaka,-44.7,169.15,55.11,70,85,1.99,NZ,1676057479
76,port alfred,-33.5906,26.891,71.19,89,95,10.96,ZA,1676057480
77,nanortalik,60.1432,-45.2371,20.73,69,100,20.54,GL,1676057480
78,aktau,43.65,51.2,21.78,52,2,2.37,KZ,1676057481
79,jamestown,42.097,-79.2353,36.01,92,100,14.97,US,1676057447
80,tiksi,71.6872,128.8694,-32.17,98,99,4.18,RU,1676057482
81,bambous virieux,-20.3428,57.7575,80.85,69,40,9.22,MU,1676057483
82,santa marta,11.2408,-74.199,91.45,55,20,14.97,CO,1676057199
83,mecca,21.4267,39.8261,75.38,52,0,1.79,SA,1676057484
84,nantucket,41.2835,-70.0995,60.94,58,0,20.71,US,1676057485
85,saskylakh,71.9167,114.0833,-45.22,98,54,7.38,RU,1676057486
86,grasse,43.6667,6.9167,38.79,74,0,3.44,FR,1676057486
87,chesma,53.8111,60.6533,5.59,95,34,6.46,RU,1676057487
88,iqaluit,63.7506,-68.5145,-27.31,67,20,12.66,CA,1676057250
89,bantou,26.2151,117.4893,60.06,99,91,1.01,CN,1676057488
90,blackfoot,43.1905,-112.345,30.06,74,12,5.48,US,1676057473
91,qaanaaq,77.484,-69.3632,-15.59,53,4,2.35,GL,1676057489
92,severo-kurilsk,50.6789,156.125,22.19,76,100,31.21,RU,1676057490
93,portobelo,9.55,-79.65,83.1,82,41,14.43,PA,1676057491
94,nuuk,64.1835,-51.7216,7.41,66,100,11.5,GL,1676057491
95,cabedelo,-6.9811,-34.8339,86.67,71,90,13.53,BR,1676057492
96,ponta delgada,37.7333,-25.6667,59.72,77,20,12.66,PT,1676057493
97,hithadhoo,-0.6,73.0833,81.0,75,68,12.82,MV,1676057493
98,pitangueiras,-21.0094,-48.2217,86.52,73,100,3.27,BR,1676057263
99,mirnyy,62.5353,113.9611,-32.28,100,95,1.59,RU,1676057495
100,puro,12.4841,123.3827,76.41,88,15,7.09,PH,1676057495
101,biak,-0.9131,122.8766,75.94,78,100,3.58,ID,1676057496
102,vila franca do campo,37.7167,-25.4333,59.41,83,30,7.99,PT,1676057497
103,atuona,-9.8,-139.0333,78.82,77,6,16.78,PF,1676057498
104,cody,44.5263,-109.0565,49.64,42,0,9.22,US,1676057498
105,bertoua,4.5833,13.6833,77.07,19,58,0.31,CM,1676057499
106,norman wells,65.282,-126.8329,-3.96,71,100,5.75,CA,1676057500
107,nara,34.6851,135.8049,45.5,78,95,6.85,JP,1676057246
108,alekseyevsk,57.8406,108.3492,2.23,98,100,3.06,RU,1676057501
109,saint-augustin,51.226,-58.6502,11.32,72,100,5.17,CA,1676057501
110,kismayo,-0.3582,42.5454,77.23,85,63,14.9,SO,1676057502
111,namibe,-15.1961,12.1522,71.62,78,85,5.77,AO,1676057502
112,san patricio,28.017,-97.5169,66.15,45,11,21.63,US,1676057503
113,sovetskiy,61.3614,63.5842,13.1,97,77,6.69,RU,1676057503
114,platanos,37.6667,21.6167,38.05,76,88,7.18,GR,1676057504
115,ushtobe,45.2514,77.9838,14.16,92,100,5.39,KZ,1676057504
116,codrington,-38.2667,141.9667,56.41,97,3,8.55,AU,1676057505
117,olafsvik,64.8945,-23.7142,39.67,82,100,33.67,IS,1676057505
118,chuhar kana,31.75,73.8,54.75,23,1,6.35,PK,1676057506
119,chiang rai,19.9167,99.9167,60.58,71,28,1.86,TH,1676057506
120,raytown,39.0086,-94.4636,37.94,51,0,9.22,US,1676057507
121,berlevag,70.8578,29.0864,26.6,63,0,18.41,NO,1676057507
122,dingle,10.9995,122.6711,73.8,93,63,7.4,PH,1676057508
123,vryheid,-27.7695,30.7917,60.53,99,100,3.67,ZA,1676057508
124,kurumkan,54.3,110.3,-3.86,92,33,4.81,RU,1676057509
125,mattru,7.6244,-11.8332,79.68,68,9,6.35,SL,1676057510
126,eydhafushi,5.1033,73.0708,80.35,72,74,8.39,MV,1676057510
127,bathsheba,13.2167,-59.5167,83.01,61,20,25.32,BB,1676057511
128,esperance,-33.8667,121.9,65.39,79,76,14.54,AU,1676057512
129,vanimo,-2.6741,141.3028,76.87,92,100,7.38,PG,1676057512
130,aykhal,66.0,111.5,-31.0,100,97,7.36,RU,1676057513
131,saldanha,-33.0117,17.9442,68.34,78,0,6.08,ZA,1676057514
132,dombarovskiy,50.7587,59.5386,4.86,99,85,7.27,RU,1676057515
133,huarmey,-10.0681,-78.1522,77.68,73,34,10.96,PE,1676057515
134,avarua,-21.2078,-159.775,82.45,78,40,4.61,CK,1676057516
135,kathmandu,27.7167,85.3167,51.84,79,20,2.3,NP,1676057517
136,isangel,-19.55,169.2667,81.77,88,100,20.29,VU,1676057517
137,novyy urengoy,66.0833,76.6333,13.51,94,95,14.41,RU,1676057515
138,naron,43.5167,-8.1528,52.02,81,0,7.7,ES,1676057518
139,qasigiannguit,68.8193,-51.1922,-14.55,99,100,3.53,GL,1676057519
140,san francisco,37.7749,-122.4194,59.16,85,100,13.8,US,1676057314
141,bengkulu,-3.8004,102.2655,74.82,89,42,8.34,ID,1676057519
142,lufilufi,-13.8745,-171.5986,82.18,76,63,15.99,WS,1676057520
143,czluchow,53.6672,17.3588,34.38,95,100,12.44,PL,1676057521
144,grand gaube,-20.0064,57.6608,81.0,74,3,5.01,MU,1676057521
145,zenzeli,45.9241,47.0474,7.03,95,5,2.73,RU,1676057522
146,krasnovishersk,60.4078,57.082,25.81,92,100,10.42,RU,1676057523
147,cidreira,-30.1811,-50.2056,79.7,72,0,10.4,BR,1676057524
148,marzuq,14.4,46.4667,64.89,66,1,1.86,YE,1676057525
149,alice springs,-23.7,133.8833,71.15,60,0,4.61,AU,1676057515
150,tahta,26.7693,31.5021,60.12,25,98,7.0,EG,1676057526
151,santiago del estero,-27.7951,-64.2615,103.12,23,0,11.43,AR,1676057527
152,casino,-28.8667,153.05,66.78,94,0,2.91,AU,1676057528
153,chokurdakh,70.6333,147.9167,-50.39,100,73,5.08,RU,1676057530
154,naze,28.3667,129.4833,58.12,73,100,9.98,JP,1676057530
155,katsuura,35.1333,140.3,47.48,77,50,17.69,JP,1676057531
156,semporna,4.4818,118.6112,77.76,88,100,7.49,MY,1676057532
157,carnarvon,-24.8667,113.6333,75.61,69,7,22.01,AU,1676057533
158,jumla,29.2747,82.1838,36.88,61,0,4.41,NP,1676057533
159,dukat,62.55,155.55,-23.08,92,100,4.61,RU,1676057534
160,clyde river,70.4692,-68.5914,-30.77,68,0,4.61,CA,1676057535
161,morant bay,17.8815,-76.4093,87.42,66,2,14.32,JM,1676057536
162,abu samrah,35.3029,37.1841,41.79,73,58,7.76,SY,1676057537
163,aswan,24.0934,32.907,67.3,22,0,8.05,EG,1676057538
164,arman,59.7,150.1667,0.41,95,100,8.86,RU,1676057539
165,lebu,-37.6167,-73.65,64.78,68,1,14.14,CL,1676057539
166,ciudad guayana,8.3533,-62.6528,87.53,64,57,11.97,VE,1676057541
167,andenes,69.3143,16.1194,28.92,64,20,27.63,NO,1676057541
168,sao domingos,-13.3983,-46.3183,87.46,39,55,3.18,BR,1676057542
169,salalah,17.0151,54.0924,80.69,21,0,6.91,OM,1676057543
170,airai,-8.9266,125.4092,59.99,95,100,2.71,TL,1676057544
171,nyrob,60.733,56.7202,25.27,93,100,10.13,RU,1676057544
172,lavrentiya,65.5833,-171.0,-23.6,93,67,9.26,RU,1676057545
173,gangapur,26.4833,76.7167,65.05,51,0,6.96,IN,1676057546
174,lorengau,-2.0226,147.2712,78.94,85,100,8.72,PG,1676057546
175,tarata,-17.6167,-66.0167,71.02,59,98,3.49,BO,1676057547
176,saint-joseph,-21.3667,55.6167,77.38,77,33,11.95,RE,1676057548
177,lazaro cardenas,17.9583,-102.2,84.33,51,0,11.45,MX,1676057549
178,mbandaka,0.0487,18.2603,78.4,56,68,3.04,CD,1676057549
179,rio gallegos,-51.6226,-69.2181,75.25,33,40,28.77,AR,1676057550
180,mudgee,-32.5943,149.5871,57.78,76,33,2.04,AU,1676057503
181,luwuk,-0.9516,122.7875,76.95,76,100,3.65,ID,1676057552
182,bethel,41.3712,-73.414,57.56,45,0,16.11,US,1676057552
183,kankon,15.0167,74.0167,76.8,64,31,4.07,IN,1676057553
184,hukuntsi,-24.0,21.75,77.52,23,0,6.71,BW,1676057553
185,opuwo,-18.0607,13.84,72.5,48,25,9.22,NA,1676057554
186,necochea,-38.5473,-58.7368,91.33,37,13,16.58,AR,1676057555
187,aksarka,66.5606,67.7975,17.15,89,59,11.12,RU,1676057555
188,mar del plata,-38.0023,-57.5575,96.84,83,20,14.97,AR,1676057459
189,najran,17.4924,44.1277,61.45,37,3,1.9,SA,1676057556
190,duldurga,50.6761,113.5931,-4.18,100,56,3.96,RU,1676057557
191,ust-tsilma,65.441,52.1498,24.67,90,100,9.55,RU,1676057557
192,iracoubo,5.4802,-53.2011,78.55,78,100,12.93,GF,1676057558
193,sinnamary,5.3833,-52.95,78.84,78,100,13.22,GF,1676057558
194,port blair,11.6667,92.75,78.84,73,4,2.3,IN,1676057559
195,kamenka,51.3223,42.7678,19.62,94,85,11.16,RU,1676057561
196,moen,69.1304,18.6123,26.87,93,100,11.5,NO,1676057561
197,high level,58.5169,-117.136,17.71,93,100,2.3,CA,1676057562
198,hobyo,5.3505,48.5268,76.42,73,90,21.07,SO,1676057563
199,georgetown,5.4112,100.3354,79.95,94,20,2.3,MY,1676057394
200,porto walter,-8.2686,-72.7439,81.03,79,77,2.66,BR,1676057564
201,praia da vitoria,38.7333,-27.0667,59.76,82,20,5.79,PT,1676057565
202,polkowice,51.5039,16.0726,32.49,83,95,9.82,PL,1676057565
203,yulara,-25.2406,130.9889,78.12,29,0,1.41,AU,1676057566
204,weinan,34.5036,109.5089,33.03,96,91,5.95,CN,1676057567
205,ust-nera,64.5667,143.2,-39.37,95,97,3.2,RU,1676057567
206,avera,33.194,-82.5271,67.91,68,100,7.45,US,1676057568
207,hofn,64.2539,-15.2082,36.09,82,100,8.19,IS,1676057568
208,ponta do sol,32.6667,-17.1,61.0,82,100,10.78,PT,1676057569
209,burnie,-41.0667,145.9167,56.95,92,7,10.04,AU,1676057569
210,yar-sale,66.8333,70.8333,13.91,93,11,11.43,RU,1676057570
211,bahce,37.1972,36.5766,33.57,66,16,5.64,TR,1676057571
212,kaitangata,-46.2817,169.8464,53.51,71,19,2.33,NZ,1676057571
213,road town,18.4167,-64.6167,84.29,65,40,13.8,VG,1676057308
214,viedma,-40.8135,-62.9967,91.71,24,0,11.05,AR,1676057572
215,gorontalo,0.5412,123.0595,74.64,94,100,4.14,ID,1676057573
216,itarema,-2.9248,-39.9167,84.13,70,20,17.85,BR,1676057355
217,oriximina,-1.7656,-55.8661,83.07,77,26,2.01,BR,1676057574
218,camopi,3.1655,-52.3158,76.84,97,87,4.05,GF,1676057574
219,san jeronimo,-11.9472,-75.2829,59.02,66,100,6.4,PE,1676057575
220,ylojarvi,61.5563,23.5961,26.94,87,0,10.36,FI,1676057575
221,bichena,10.45,38.2,60.15,29,12,2.13,ET,1676057576
222,castro,-24.7911,-50.0119,65.21,96,93,11.43,BR,1676057576
223,yumbel,-37.0833,-72.5667,89.83,13,0,10.42,CL,1676057577
224,svetlogorsk,52.6333,29.7333,30.83,77,100,9.8,BY,1676057577
225,ust-kuyga,70.0167,135.6,-46.73,100,100,5.28,RU,1676057578
226,redmond,47.674,-122.1215,52.34,80,31,4.0,US,1676057578
227,williams lake,52.1415,-122.1445,38.77,64,75,12.66,CA,1676057426
228,el alto,-4.2714,-81.2147,85.66,70,23,12.62,PE,1676057411
229,rockwall,32.9001,-96.4003,45.79,67,100,14.97,US,1676057579
230,tobermory,45.2501,-81.6665,28.51,77,100,27.36,CA,1676057579
231,balikpapan,-1.2675,116.8289,77.99,94,40,5.75,ID,1676057580
232,northam,51.0333,-4.2167,48.38,98,100,7.94,GB,1676057581
233,yermakovskoye,53.2831,92.4003,-10.01,100,90,1.3,RU,1676057581
234,shipitsyno,61.2806,46.5208,23.9,89,100,13.09,RU,1676057582
235,umm lajj,25.0213,37.2685,69.19,59,43,9.98,SA,1676057584
236,porto de moz,-1.7483,-52.2383,81.52,85,74,3.49,BR,1676057584
237,belyy yar,53.6039,91.3903,-14.91,91,100,4.47,RU,1676057585
238,sertolovo,60.1444,30.2017,31.68,79,80,15.99,RU,1676057586
239,ende,-8.8432,121.6623,77.27,85,100,1.88,ID,1676057586
240,bisira,8.5196,-81.7115,68.41,67,94,7.96,PA,1676057587
241,filadelfia,39.9523,-75.1638,59.25,42,40,18.41,US,1676057400
242,laguna,38.421,-121.4238,65.01,66,0,10.36,US,1676057588
243,jalu,29.0331,21.5482,58.68,50,81,13.69,LY,1676057588
244,rosetta,31.4044,30.4164,54.19,81,26,14.45,EG,1676057589
245,palimbang,6.2106,124.1894,76.66,82,28,3.69,PH,1676057590
246,pampa,35.5362,-100.9599,41.04,28,0,19.57,US,1676057315
247,waingapu,-9.6567,120.2641,76.87,85,100,6.64,ID,1676057591
248,karonga,-9.9333,33.9333,74.95,79,99,4.0,MW,1676057591
249,taoudenni,22.6783,-3.9836,74.97,11,96,21.81,ML,1676057592
250,tharad,24.3961,71.6267,66.56,71,0,8.21,IN,1676057593
251,cabo san lucas,22.8909,-109.9124,85.6,44,0,11.5,MX,1676057457
252,semirom,31.4167,51.5667,21.56,89,93,1.97,IR,1676057594
253,pochutla,15.7432,-96.4661,89.42,39,0,10.83,MX,1676057595
254,los llanos de aridane,28.6585,-17.9182,62.35,82,40,3.0,ES,1676057595
255,flin flon,54.7682,-101.865,21.04,73,75,4.61,CA,1676057596
256,varadero,23.1536,-81.2514,88.56,67,2,21.65,CU,1676057416
257,bakchar,57.0186,82.0711,-9.78,99,22,3.96,RU,1676057597
258,nikitinskiy,54.5845,86.0115,-19.25,100,84,2.35,RU,1676057598
259,vostok,46.4856,135.8833,7.47,97,98,3.29,RU,1676057598
260,victoria,22.2855,114.1577,68.95,93,100,11.99,HK,1676057449
261,camacha,33.0833,-16.3333,58.42,77,75,17.27,PT,1676057599
262,umba,66.6871,34.3429,21.24,99,100,3.24,RU,1676057600
263,inhambane,-23.865,35.3833,82.38,94,75,5.75,MZ,1676057600
264,nome,64.5011,-165.4064,-0.33,65,40,10.36,US,1676057601
265,galgamacsa,47.6956,19.3872,31.62,60,98,2.75,HU,1676057601
266,chazuta,-6.5742,-76.1367,90.45,65,63,1.1,PE,1676057602
267,merke,42.8728,73.1786,15.44,83,92,3.89,KZ,1676057603
268,dunedin,-45.8742,170.5036,55.85,78,19,1.63,NZ,1676057459
269,coihaique,-45.5752,-72.0662,63.21,48,75,10.36,CL,1676057603
270,derbent,42.0678,48.2899,32.74,68,100,8.9,RU,1676057604
271,sabha,27.0377,14.4283,52.61,40,21,8.81,LY,1676057605
272,provideniya,64.3833,-173.3,-18.94,92,98,8.37,RU,1676057606
273,abilene,32.4487,-99.7331,45.77,41,75,21.85,US,1676057606
274,baniachang,24.5167,91.3667,59.5,44,0,1.05,BD,1676057607
275,paramonga,-10.6667,-77.8333,77.14,74,55,9.86,PE,1676057608
276,leningradskiy,69.3833,178.4167,-21.26,97,100,11.01,RU,1676057609
277,luderitz,-26.6481,15.1594,63.64,97,42,4.63,NA,1676057609
278,toguchin,55.2353,84.3858,-17.63,100,66,2.37,RU,1676057610
279,havre,49.5833,0.3333,43.34,93,76,3.44,FR,1676057611
280,minnedosa,50.2453,-99.8436,25.36,85,17,12.21,CA,1676057434
281,wanning,18.8003,110.3967,71.76,95,20,5.79,CN,1676057612
282,sawtell,-30.3833,153.1,62.62,94,0,0.0,AU,1676057612
283,falcoiu,44.2333,24.3667,22.32,76,0,5.48,RO,1676057613
284,coquimbo,-29.9533,-71.3436,74.93,60,0,11.5,CL,1676057614
285,ilulissat,69.2167,-51.1,-14.78,70,40,8.05,GL,1676057614
286,pleasanton,37.6624,-121.8747,59.61,77,0,8.01,US,1676057615
287,pacific grove,36.6177,-121.9166,60.24,79,20,11.01,US,1676057615
288,miramar,25.9873,-80.2323,84.99,63,0,16.11,US,1676057616
289,pemba,-12.974,40.5178,75.9,94,75,14.97,MZ,1676057617
290,hambantota,6.1241,81.1185,75.56,78,100,17.02,LK,1676057618
291,torbay,47.6666,-52.7314,22.39,78,75,10.36,CA,1676057618
292,thompson,55.7435,-97.8558,15.96,73,100,2.3,CA,1676057619
293,sergeyevka,53.88,67.4158,-6.97,100,75,5.03,KZ,1676057619
294,cruces,22.3411,-80.2667,85.32,34,9,11.14,CU,1676057620
295,zambezi,-13.5432,23.1047,67.06,95,100,4.63,ZM,1676057621
296,kodiak,57.79,-152.4072,35.11,100,100,0.0,US,1676057604
297,acolla,-11.7319,-75.5463,57.85,63,100,7.29,PE,1676057621
298,bandarbeyla,9.4942,50.8122,76.01,70,53,20.65,SO,1676057622
299,dapaong,10.8639,0.205,86.11,10,0,5.19,TG,1676057622
300,ribeira grande,38.5167,-28.7,59.77,77,20,5.99,PT,1676057623
301,erenhot,43.6475,111.9767,24.64,64,35,6.6,CN,1676057624
302,mahebourg,-20.4081,57.7,80.89,69,40,9.22,MU,1676057624
303,yarmouth,41.7057,-70.2286,64.87,64,0,9.22,US,1676057625
304,dikson,73.5069,80.5464,11.12,93,100,15.7,RU,1676057625
305,inirida,3.8653,-67.9239,79.52,86,100,3.38,CO,1676057626
306,khani,41.9563,42.9566,29.77,96,100,2.59,GE,1676057626
307,sao filipe,14.8961,-24.4956,70.16,75,95,8.5,CV,1676057626
308,ornskoldsvik,63.2909,18.7153,27.55,74,75,10.36,SE,1676057627
309,atlantic city,39.3643,-74.4229,60.19,45,0,19.57,US,1676057474
310,takayama,36.1333,137.25,34.02,96,100,6.76,JP,1676057628
311,hamilton,39.1834,-84.5333,47.64,72,100,11.5,US,1676057614
312,beringovskiy,63.05,179.3167,-25.15,95,51,11.27,RU,1676057628
313,balvi,57.1313,27.2658,27.81,86,56,11.21,LV,1676057629
314,kamyshevatskaya,46.4132,37.9563,27.3,59,2,3.02,RU,1676057631
315,makrana,27.05,74.7167,64.76,47,4,7.34,IN,1676057631
316,tomatlan,19.9333,-105.25,88.14,30,87,9.48,MX,1676057632
317,verkhoyansk,67.5447,133.385,-57.06,100,87,1.54,RU,1676057632
318,seoul,37.5683,126.9778,26.2,93,0,2.3,KR,1676057633
319,wabrzezno,53.2799,18.9477,34.25,86,100,13.18,PL,1676057633
320,husavik,66.0449,-17.3389,36.52,82,100,11.77,IS,1676057634
321,meoqui,28.2833,-105.4833,49.01,26,0,7.58,MX,1676057634
322,vao,-22.6667,167.4833,80.04,86,100,42.57,NC,1676057635
323,haines junction,60.7522,-137.5108,-0.45,78,100,2.3,CA,1676057635
324,chiesanuova,43.9045,12.4214,33.49,63,1,7.0,SM,1676057636
325,markovo,57.3206,107.0881,0.57,98,100,3.18,RU,1676057637
326,ayan,56.45,138.1667,-13.72,83,16,5.97,RU,1676057637
327,mobai,7.9944,-10.7511,78.21,72,8,4.56,SL,1676057637
328,cap malheureux,-19.9842,57.6142,80.47,74,2,5.01,MU,1676057638
329,atbasar,51.8,68.3333,6.44,96,93,7.47,KZ,1676057639
330,sao joao da barra,-21.6403,-41.0511,86.09,85,1,15.68,BR,1676057639
331,clacton-on-sea,51.7897,1.156,45.41,78,89,5.01,GB,1676057639
332,koungou,-12.7336,45.2042,82.11,78,100,6.91,YT,1676057640
333,saint-philippe,-21.3585,55.7679,78.39,78,37,12.17,RE,1676057640
334,hede,33.7681,120.2517,38.71,92,100,4.12,CN,1676057641
335,portland,45.5234,-122.6762,52.36,90,75,5.01,US,1676057545
336,araouane,18.9048,-3.5265,81.84,9,94,8.39,ML,1676057643
337,cockburn town,21.4612,-71.1419,76.51,78,0,24.32,TC,1676057643
338,kununurra,-15.7667,128.7333,73.38,94,75,16.11,AU,1676057644
339,paracuru,-3.41,-39.0306,83.1,73,37,11.99,BR,1676057644
340,aasiaat,68.7098,-52.8699,-13.27,93,100,6.71,GL,1676057645
341,poum,-20.2333,164.0167,81.81,79,100,28.5,NC,1676057645
342,casper,42.8666,-106.3131,28.99,50,0,27.63,US,1676057432
343,natal,-5.795,-35.2094,86.65,65,20,16.11,BR,1676057647
344,kiama,-34.6833,150.8667,64.45,91,43,5.99,AU,1676057647
345,labuan,5.2767,115.2417,77.36,100,20,2.3,MY,1676057606
346,adelaide,-34.9333,138.6,68.9,68,75,19.57,AU,1676057625
347,ixtapa,20.7,-105.2,76.23,53,20,8.05,MX,1676057648
348,makakilo city,21.3469,-158.0858,75.56,58,0,26.46,US,1676057649
349,aktash,50.3,87.7333,-4.92,97,100,2.42,RU,1676057650
350,neyshabur,36.2133,58.7958,29.1,71,100,1.32,IR,1676057651
351,baoqing,46.3317,132.2111,-4.31,100,96,2.19,CN,1676057651
352,ituporanga,-27.4144,-49.6025,73.24,94,100,2.33,BR,1676057652
353,san quintin,30.4833,-115.95,67.35,26,54,5.73,MX,1676057653
354,nuevo progreso,23.1667,-97.95,61.47,57,100,26.37,MX,1676057654
355,zaraza,9.3503,-65.3245,85.64,48,100,8.97,VE,1676057655
356,anopino,55.6981,40.6671,24.71,95,100,12.03,RU,1676057655
357,sterling,39.0062,-77.4286,60.19,42,75,19.57,US,1676057521
358,muisne,0.6,-80.0333,80.37,79,91,8.75,EC,1676057656
359,komsomolets,53.7453,62.0708,12.87,97,99,6.4,KZ,1676057657
360,shingu,33.7333,135.9833,43.61,85,4,5.57,JP,1676057658
361,puri,19.8,85.85,73.92,80,3,9.93,IN,1676057658
362,quesnel,52.9999,-122.5029,36.1,75,100,4.61,CA,1676057420
363,tigil,57.8,158.6667,-16.46,100,32,3.49,RU,1676057659
364,boddam,57.4667,-1.7833,52.43,78,100,15.68,GB,1676057660
365,maridi,4.9158,29.4742,78.94,30,59,4.34,SS,1676057661
366,bat yam,32.0231,34.7503,51.91,64,0,4.61,IL,1676057661
367,touros,-5.1989,-35.4608,82.85,65,94,13.96,BR,1676057662
368,kargil,34.5667,76.1,7.57,90,96,6.8,IN,1676057663
369,hami,42.8,93.45,30.56,50,99,6.42,CN,1676057664
370,saint george,37.1041,-113.5841,52.43,25,0,4.61,US,1676057517
371,torres,-29.3353,-49.7269,82.83,74,1,6.87,BR,1676057665
372,tromso,69.6496,18.957,27.37,86,75,8.05,NO,1676057665
373,raudeberg,61.9875,5.1352,45.27,1,100,31.05,NO,1676057666
374,margate,51.3813,1.3862,42.87,72,95,1.99,GB,1676057412
375,port-gentil,-0.7193,8.7815,84.16,84,40,8.05,GA,1676057667
376,dasoguz,41.8363,59.9666,15.75,62,0,9.22,TM,1676057668
377,kananga,-5.8958,22.4178,72.88,76,48,3.0,CD,1676057669
378,grindavik,63.8424,-22.4338,41.47,81,75,32.21,IS,1676057670
379,port lincoln,-34.7333,135.8667,64.09,78,80,17.11,AU,1676057671
380,praia,14.9215,-23.5087,72.14,64,75,16.11,CV,1676057671
381,itoman,26.1247,127.6694,64.42,88,75,3.44,JP,1676057672
382,aljezur,37.3191,-8.8033,53.78,65,100,21.52,PT,1676057673
383,grand valley,43.9001,-80.3164,32.14,89,92,19.44,CA,1676057673
384,petropavlovsk-kamchatskiy,53.0452,158.6483,0.19,71,40,6.71,RU,1676057674
385,venezuela,8.0,-66.0,91.9,33,75,17.18,VE,1676057675
386,rincon,32.296,-81.2354,66.9,91,100,3.44,US,1676057648
387,glace bay,46.1969,-59.957,32.99,85,100,14.97,CA,1676057675
388,san cristobal,7.7669,-72.225,75.38,54,95,6.44,VE,1676057676
389,kloulklubed,7.0419,134.2556,75.7,77,100,14.52,PW,1676057677
390,melivoia,39.75,22.8,30.07,67,1,3.67,GR,1676057678
391,sobolevo,54.4299,31.8996,26.94,88,71,14.29,RU,1676057678
392,richards bay,-28.783,32.0377,73.49,92,100,13.27,ZA,1676057679
393,talnakh,69.4865,88.3972,2.64,96,100,17.6,RU,1676057680
394,acapulco,16.8634,-99.8901,85.82,58,0,11.5,MX,1676057650
395,ashtabula,41.7001,-80.7665,37.96,92,100,11.5,US,1676057681
396,tambacounda,13.7539,-13.7586,95.05,15,0,4.61,SN,1676057681
397,mandalgovi,45.7625,106.2708,11.57,77,100,6.67,MN,1676057682
398,broome,42.2506,-75.833,42.69,74,100,17.27,US,1676057682
399,poddorye,57.4695,31.1156,28.53,77,92,14.67,RU,1676057683
400,sambava,-14.2667,50.1667,75.76,89,100,6.98,MG,1676057683
401,auki,-8.7676,160.7034,76.55,86,85,3.53,SB,1676057684
402,taksimo,56.3444,114.8794,-4.85,95,100,0.29,RU,1676057685
403,athens,37.9795,23.7162,46.18,63,40,8.05,GR,1676057424
404,sembakung,3.8167,117.25,72.41,99,100,2.01,ID,1676057594
405,varna,43.2167,27.9167,28.54,74,1,2.3,BG,1676057454
406,gornopravdinsk,60.05,69.9,11.48,94,99,8.68,RU,1676057687
407,cairns,-16.9167,145.7667,76.95,91,98,8.05,AU,1676057608
408,san policarpo,12.1791,125.5072,79.03,84,16,15.88,PH,1676057688
409,pangnirtung,66.1451,-65.7125,-32.8,68,20,2.3,CA,1676057688
410,sampit,-2.5333,112.95,74.66,97,100,0.29,ID,1676057689
411,vysokogornyy,50.1167,139.15,-12.98,96,71,0.76,RU,1676057689
412,kupang,-10.1667,123.5833,79.39,85,100,11.7,ID,1676057690
413,sorong,-0.8833,131.25,79.7,80,100,6.58,ID,1676057690
414,boyolangu,-8.1181,111.8935,74.62,93,100,5.86,ID,1676057691
415,akyab,20.15,92.9,67.17,73,0,9.46,MM,1676057691
416,havoysund,70.9963,24.6622,28.63,64,100,25.23,NO,1676057692
417,anloga,5.7947,0.8973,81.36,83,3,11.99,GH,1676057692
418,tateyama,34.9833,139.8667,43.11,68,58,21.56,JP,1676057693
419,narimanov,46.6927,47.8498,6.71,96,12,5.28,RU,1676057694
420,fairbanks,64.8378,-147.7164,-1.79,76,40,5.75,US,1676057570
421,yerbogachen,61.2767,108.0108,-24.79,100,94,4.23,RU,1676057694
422,panguna,-6.3164,155.4848,68.95,95,97,2.17,PG,1676057695
423,maniitsoq,65.4167,-52.9,-2.76,96,99,9.8,GL,1676057695
424,marquette,46.5333,-87.6335,21.83,73,100,11.01,US,1676057696
425,elliot lake,46.3834,-82.6331,22.21,86,100,9.89,CA,1676057696
426,moerai,-22.4333,-151.3333,80.67,72,30,11.65,PF,1676057696
427,sola,-13.8833,167.55,82.18,72,100,11.61,VU,1676057697
428,prainha,-1.8,-53.48,81.37,79,76,2.98,BR,1676057698
429,yining,29.0361,114.5636,46.63,96,100,1.97,CN,1676057698
430,severodvinsk,64.5635,39.8302,24.91,94,100,10.27,RU,1676057699
431,bafoulabe,13.8065,-10.8321,94.44,20,31,2.82,ML,1676057700
432,port arthur,38.8,121.2667,34.14,80,100,8.84,CN,1676057700
433,presidencia roque saenz pena,-26.7852,-60.4388,98.47,28,99,3.22,AR,1676057701
434,vaitape,-16.5167,-151.75,81.25,74,29,12.46,PF,1676057702
435,port hardy,50.6996,-127.4199,44.78,93,75,10.36,CA,1676057703
436,jablah,35.3614,35.9256,46.69,61,0,11.5,SY,1676057703
437,henties bay,-22.116,14.2845,66.18,88,11,7.72,NA,1676057704
438,mount pleasant,32.7941,-79.8626,76.08,82,0,8.05,US,1676057705
439,volchikha,52.0333,80.3833,3.81,96,100,5.64,RU,1676057706
440,jieznas,54.6,24.1667,31.59,91,60,11.45,LT,1676057707
441,omboue,-1.5746,9.2618,79.43,86,100,3.87,GA,1676057707
442,tuatapere,-46.1333,167.6833,54.9,73,60,4.23,NZ,1676057708
443,bubaque,11.2833,-15.8333,74.43,74,14,12.35,GW,1676057708
444,fort nelson,58.8053,-122.7002,17.94,80,100,4.0,CA,1676057709
445,lashio,22.9333,97.75,49.01,61,1,1.16,MM,1676057710
446,wald-michelbach,49.57,8.8317,34.39,74,78,4.32,DE,1676057711
447,lata,40.1629,-8.3327,46.09,57,98,7.0,PT,1676057711
448,alekseyevka,50.6309,38.6903,21.42,88,15,11.81,RU,1676057712
449,amapa,1.0,-52.0,79.21,94,63,3.36,BR,1676057568
450,callaway,30.153,-85.5699,66.13,90,100,11.5,US,1676057713
451,vila do maio,15.1333,-23.2167,72.39,78,91,15.93,CV,1676057714
452,ligayan,4.6533,119.4706,80.96,77,79,7.74,PH,1676057715
453,virginia beach,36.8529,-75.978,75.25,56,75,9.22,US,1676057646
454,vardo,70.3705,31.1107,15.78,67,0,11.5,NO,1676057716
455,santana do livramento,-30.8908,-55.5328,98.01,19,91,6.42,BR,1676057716
456,menongue,-14.6585,17.691,70.02,63,98,3.51,AO,1676057717
457,quang ngai,15.1167,108.8,69.6,94,5,4.72,VN,1676057718
458,bilma,18.6853,12.9164,71.49,19,10,13.42,NE,1676057718
459,gilgit,35.9221,74.3087,31.28,67,99,1.25,PK,1676057719
460,kandrian,-6.2167,149.55,78.66,86,100,10.33,PG,1676057719
461,samarai,-10.6167,150.6667,78.21,91,100,10.76,PG,1676057720
462,dagda,56.0951,27.5372,26.35,87,12,11.23,LV,1676057722
463,shubarshi,48.5872,57.1869,12.92,93,100,13.42,KZ,1676057723
464,chino valley,34.7575,-112.4538,54.84,19,0,5.75,US,1676057489
465,mocuba,-16.8392,36.9856,75.42,95,100,4.16,MZ,1676057725
466,kamiiso,41.8167,140.65,24.67,94,80,6.26,JP,1676057726
467,balkanabat,39.5108,54.3671,31.59,56,23,5.97,TM,1676057726
468,slave lake,55.2834,-114.769,30.18,69,100,2.3,CA,1676057727
469,kisangani,0.5167,25.2,78.12,40,43,1.81,CD,1676057728
470,clovis,36.8252,-119.7029,70.84,59,75,5.75,US,1676057728
471,te anau,-45.4167,167.7167,50.38,81,28,0.67,NZ,1676057729
472,annau,37.8876,58.516,29.7,74,100,2.3,TM,1676057730
473,port victoria,0.0939,33.9756,74.05,69,83,8.3,KE,1676057730
474,thinadhoo,0.5333,72.9333,81.63,67,46,13.09,MV,1676057731
475,manitouwadge,49.1215,-85.8403,17.26,85,100,5.91,CA,1676057731
476,awjilah,29.1081,21.2869,56.44,54,38,12.08,LY,1676057732
477,celestun,20.8667,-90.4,81.68,65,0,10.71,MX,1676057732
478,udachnyy,66.4167,112.4,-33.07,100,91,4.94,RU,1676057733
479,baykit,61.67,96.37,-17.66,100,100,1.68,RU,1676057734
480,padang,-0.9492,100.3543,75.42,85,94,5.32,ID,1676057734
481,scottsbluff,41.8666,-103.6672,43.92,37,0,10.36,US,1676057686
482,dehloran,32.6941,47.2679,48.4,45,7,1.59,IR,1676057735
483,mehendiganj,22.8167,90.5333,66.85,74,0,3.65,BD,1676057736
484,ambulu,-8.345,113.6058,75.2,91,100,3.65,ID,1676057737
485,lodwar,3.1191,35.5973,86.9,33,1,7.49,KE,1676057737
486,anahuac,27.2333,-100.15,61.25,27,7,23.87,MX,1676057738
487,moundou,8.5667,16.0833,83.95,10,0,2.42,TD,1676057738
488,riyadh,24.6877,46.7219,59.14,38,31,14.16,SA,1676057635
489,xining,36.6167,101.7667,30.18,23,97,2.82,CN,1676057739
490,krasnyy yar,46.5331,48.3456,6.73,97,16,4.52,RU,1676057740
491,dali,25.7,100.1833,40.06,64,0,5.3,CN,1676057740
492,ancud,-41.8697,-73.8203,61.23,80,99,12.44,CL,1676057741
493,adrar,20.5022,-10.0711,70.39,15,100,18.41,MR,1676057742
494,la libertad,-2.2333,-80.9,85.66,70,0,10.36,EC,1676057742
495,saltillo,25.4167,-101.0,61.16,46,40,5.75,MX,1676057490
496,boyabat,41.4689,34.7667,29.64,85,72,1.9,TR,1676057743
497,magdagachi,53.45,125.8,-13.41,100,91,1.79,RU,1676057744
498,bara,10.3744,10.7288,78.39,13,0,8.34,NG,1676057745
499,pemangkat,1.1667,108.9667,77.13,89,100,5.37,ID,1676057745
500,majene,-3.5403,118.9707,77.2,80,100,3.24,ID,1676057746
501,jaguarao,-32.5661,-53.3758,89.96,37,0,15.73,BR,1676057747
502,pedernales,18.0384,-71.744,86.94,44,0,18.48,DO,1676057748
503,denpasar,-8.65,115.2167,78.46,100,20,2.3,ID,1676057573
504,vanavara,60.34,102.2797,-22.83,100,40,3.89,RU,1676057748
505,karratha,-20.7377,116.8463,84.27,71,48,14.97,AU,1676057749
506,resistencia,-27.4606,-58.9839,99.09,38,40,4.61,AR,1676057749
507,urengoy,65.9667,78.3667,14.74,94,100,14.72,RU,1676057750
508,temple,31.0982,-97.3428,53.06,52,100,16.11,US,1676057750
509,tuban,-6.8976,112.0649,77.36,87,100,7.27,ID,1676057751
510,ciudad bolivar,8.1222,-63.5497,93.67,32,55,8.55,VE,1676057730
511,mount isa,-20.7333,139.5,78.57,50,71,4.61,AU,1676057752
512,sangar,63.9242,127.4739,-45.42,97,75,1.45,RU,1676057752
513,mut,36.6439,33.4389,30.09,70,4,7.63,TR,1676057753
514,rongcheng,30.634,117.8517,45.61,95,97,1.36,CN,1676057754
515,okakarara,-20.5833,17.4333,74.8,33,3,5.46,NA,1676057754
516,mulege,26.8833,-111.9833,69.06,32,100,14.25,MX,1676057755
517,kouroussa,10.65,-9.8833,89.98,34,85,3.38,GN,1676057755
518,sri aman,1.2376,111.4621,77.05,94,100,0.0,MY,1676057756
519,komsomolskiy,40.4272,71.7189,29.12,64,75,6.91,UZ,1676057756
520,porto novo,6.4965,2.6036,84.02,79,4,9.26,BJ,1676057757
521,labuhan,-6.8844,112.2051,77.83,87,100,8.93,ID,1676057757
522,ilheus,-14.7889,-39.0494,85.82,74,20,6.91,BR,1676057758
523,asau,46.4333,26.4,16.72,91,23,6.58,RO,1676057664
524,chandigarh,30.7343,76.7933,57.2,73,79,4.03,IN,1676057758
525,syracuse,37.0881,15.2792,51.17,67,100,27.96,IT,1676057759
526,kruisfontein,-34.0033,24.7314,67.89,85,0,7.63,ZA,1676057759
527,drayton valley,53.2168,-114.9854,39.9,60,100,16.49,CA,1676057760
528,zhaoyuan,37.3592,120.3964,34.45,87,100,5.59,CN,1676057760
529,picota,-6.9197,-76.3304,90.09,70,70,2.06,PE,1676057761
530,evensk,61.95,159.2333,-0.94,70,100,11.1,RU,1676057762
531,port keats,-14.25,129.55,77.14,85,100,0.58,AU,1676057763
532,banda aceh,5.5577,95.3222,77.41,81,100,5.01,ID,1676057763
533,villazon,-22.0866,-65.5942,65.84,34,91,14.34,BO,1676057764
534,xuddur,4.1213,43.8894,76.78,32,99,15.79,SO,1676057765
535,liwale,-9.7667,37.9333,69.13,97,100,3.83,TZ,1676057766
536,kavaratti,10.5669,72.642,79.65,78,100,8.81,IN,1676057766
537,nyurba,63.2842,118.3319,-29.27,99,100,2.75,RU,1676057767
538,hirara,24.8,125.2833,70.2,85,62,16.11,JP,1676057769
539,ierapetra,35.01,25.7353,50.14,60,100,11.99,GR,1676057770
540,jales,-20.2689,-50.5458,75.61,86,100,5.5,BR,1676057771
541,tolaga bay,-38.3667,178.3,62.87,69,100,6.15,NZ,1676057772
542,nimbahera,24.6167,74.6833,64.09,41,0,6.62,IN,1676057772
543,zhangjiakou,40.81,114.8794,19.22,91,66,1.63,CN,1676057773
544,high prairie,55.4334,-116.4858,35.98,83,100,13.22,CA,1676057773
545,coahuayana,18.7333,-103.6833,88.54,38,1,7.63,MX,1676057774
546,atambua,-9.1061,124.8925,73.58,91,100,1.63,ID,1676057775
547,mindelo,16.8901,-24.9804,71.15,56,75,21.85,CV,1676057775
548,shitanjing,39.2342,106.3439,27.91,86,88,8.1,CN,1676057776
549,namatanai,-3.6667,152.4333,78.22,86,100,6.91,PG,1676057777
550,yeppoon,-23.1333,150.7333,73.18,80,3,1.92,AU,1676057777
551,skibbereen,51.55,-9.2667,50.11,94,100,9.24,IE,1676057778
